,Country,City,Cloudiness (%),Lat,Lon,Humidity (%),Wind Speed (mph),Temp Min,Temp Max,Date
0,EC,Puerto Ayora,40,-0.74,-90.35,69,14.99,69.01,77.0,1603576654
1,RU,Talnakh,75,69.49,88.4,92,11.18,14.0,14.0,1603576655
2,PF,Moerai,58,-22.43,-151.33,77,19.06,72.72,72.72,1603576656
3,ZA,Saldanha,7,-33.01,17.94,82,6.93,62.6,62.6,1603576657
4,NZ,Bluff,89,-46.6,168.33,53,14.0,73.99,73.99,1603576659
5,UY,Chui,21,-33.7,-53.46,95,6.15,63.82,63.82,1603576660
6,CK,Avarua,52,-21.21,-159.78,69,16.11,77.0,77.0,1603576661
7,US,Saint Paul Harbor,20,57.79,-152.41,87,6.93,46.4,46.4,1603576662
8,PK,Pindi Gheb,0,33.24,72.27,67,4.7,59.0,59.0,1603576663
9,ZA,Port Alfred,8,-33.59,26.89,89,5.37,65.66,65.66,1603576664
10,MX,Guerrero Negro,16,27.98,-114.06,63,17.63,72.9,72.9,1603576665
11,IN,Kumta,19,14.42,74.4,84,7.34,75.9,75.9,1603576667
12,AU,Moree,75,-29.47,149.85,77,11.27,66.2,66.2,1603576668
13,US,Barrow,90,71.29,-156.79,92,12.75,30.2,30.2,1603576489
14,AU,Kiama,98,-34.68,150.87,80,3.0,55.0,57.99,1603576670
15,CU,Santa Cruz del Sur,100,20.71,-78.0,83,10.92,79.63,79.63,1603576671
16,MU,Mahébourg,75,-20.41,57.7,88,12.75,71.6,71.6,1603576673
17,US,Albany,37,42.6,-73.97,71,14.0,48.0,51.01,1603576625
18,RU,Lavrentiya,56,65.58,-171.0,87,7.23,33.75,33.75,1603576675
19,RU,Kungurtug,92,50.6,97.52,95,4.07,30.85,30.85,1603576676
20,ZA,Bredasdorp,1,-34.53,20.04,82,11.41,64.4,64.4,1603576677
21,ZA,Hermanus,29,-34.42,19.23,90,1.99,62.01,62.01,1603576678
22,AU,Busselton,53,-33.65,115.33,49,10.6,50.0,59.0,1603576679
23,CL,Valparaíso,0,-33.04,-71.63,55,9.17,59.0,62.6,1603576680
24,AU,Hobart,40,-42.88,147.33,61,13.87,44.01,48.0,1603576525
25,MU,Bambous Virieux,75,-20.34,57.76,88,12.75,69.01,71.6,1603576683
26,NC,Poum,0,-20.23,164.02,78,18.68,77.95,77.95,1603576684
27,RU,Aykhal,40,66.0,111.5,92,4.47,10.4,10.4,1603576685
28,MX,Zihuatanejo,5,17.63,-101.55,63,8.05,91.4,91.4,1603576686
29,RU,Pevek,0,69.7,170.31,92,13.11,26.71,26.71,1603576687
30,AR,Ushuaia,75,-54.8,-68.3,57,13.87,48.2,48.2,1603576688
31,IT,Syracuse,0,37.09,15.28,93,8.05,62.6,64.99,1603576689
32,CV,São Filipe,96,14.9,-24.5,73,10.71,81.55,81.55,1603576690
33,ID,Atambua,14,-9.11,124.89,83,1.68,76.75,76.75,1603576691
34,MX,Petatlán,5,17.52,-101.27,63,8.05,91.4,91.4,1603576693
35,JP,Nara,20,34.69,135.8,87,8.05,46.4,53.01,1603576694
36,MN,Ulaangom,1,49.98,92.07,77,12.62,28.9,28.9,1603576695
37,CD,Inongo,100,-1.95,18.27,95,3.71,72.1,72.1,1603576696
38,RU,Kem',44,64.96,34.58,97,8.23,26.46,26.46,1603576697
39,BR,Saquarema,90,-22.92,-42.51,100,13.87,69.8,69.8,1603576403
40,PF,Atuona,1,-9.8,-139.03,76,23.11,78.53,78.53,1603576617
41,ID,Nabire,99,-3.37,135.48,82,3.2,77.76,77.76,1603576700
42,NZ,Mataura,94,-46.19,168.86,53,14.0,73.99,73.99,1603576701
43,AO,Malanje,48,-9.54,16.34,96,2.53,65.44,65.44,1603576703
44,GB,Brae,79,60.4,-1.35,81,10.29,50.0,50.0,1603576704
45,CL,Ancud,90,-41.87,-73.82,87,12.75,39.99,52.0,1603576705
46,RU,Ekhabi,0,53.51,142.97,93,2.08,39.56,39.56,1603576706
47,RU,Saskylakh,100,71.92,114.08,95,21.47,14.47,14.47,1603576707
48,RU,Provideniya,78,64.38,-173.3,87,15.05,34.56,34.56,1603576708
49,RE,Saint-Philippe,0,-21.36,55.77,60,5.82,57.99,71.6,1603576709
50,PF,Rikitea,88,-23.12,-134.97,83,22.82,74.7,74.7,1603576711
51,MA,Tiznit Province,1,29.58,-9.5,54,1.19,66.18,66.18,1603576712
52,RU,Lysyye Gory,100,51.55,44.84,74,3.31,51.39,51.39,1603576713
53,RU,Zhigalovo,100,54.81,105.16,90,0.47,34.97,34.97,1603576714
54,AU,New Norfolk,4,-42.78,147.06,61,1.99,42.01,48.0,1603576571
55,US,Sitka,40,57.05,-135.33,52,1.7,42.8,42.8,1603576716
56,PF,Tiarei,75,-17.53,-149.33,69,6.93,82.0,82.4,1603576717
57,US,Jamestown,90,42.1,-79.24,80,5.82,39.2,43.0,1603576718
58,CA,Yellowknife,40,62.46,-114.35,58,9.17,25.0,26.6,1603576720
59,CA,Inuvik,75,68.35,-133.72,58,2.24,24.8,24.8,1603576721
60,IN,Dwārka,1,22.24,68.97,58,6.26,81.91,81.91,1603576722
61,FI,Tornio,0,65.85,24.15,92,1.12,26.6,26.6,1603576723
62,GL,Tasiilaq,97,65.61,-37.64,92,3.04,32.0,32.0,1603576724
63,US,Pacific Grove,40,36.62,-121.92,63,6.93,64.0,69.01,1603576591
64,CN,Shenzhen,99,22.55,114.07,68,1.01,61.0,75.0,1603576726
65,CL,Constitución,100,-35.33,-72.42,79,16.13,55.18,55.18,1603576727
66,GL,Qaanaaq,100,77.48,-69.36,91,13.04,17.28,17.28,1603576728
67,RU,Chokurdakh,100,70.63,147.92,97,7.38,15.69,15.69,1603576730
68,KI,Butaritari,15,3.07,172.79,66,6.76,81.95,81.95,1603576597
69,CL,Punta Arenas,90,-53.15,-70.92,93,13.87,42.01,42.8,1603576616
70,NA,Oranjemund,15,-28.55,16.43,92,7.7,59.27,59.27,1603576733
71,US,Wilbraham,40,42.12,-72.43,55,16.11,55.99,62.6,1603576734
72,PG,Lorengau,15,-2.02,147.27,61,6.04,84.38,84.38,1603576735
73,JP,Wajima,86,37.4,136.9,59,18.12,57.78,57.78,1603576736
74,BR,Arraial do Cabo,90,-22.97,-42.03,100,13.87,69.8,69.8,1603576737
75,BG,Gabrovo,100,42.87,25.33,86,0.54,52.0,55.99,1603576738
76,CN,Fuling,98,29.7,107.39,58,2.33,62.29,62.29,1603576740
77,CA,Sioux Lookout,75,50.1,-91.92,58,3.36,28.4,28.4,1603576650
78,RU,Deputatsky,0,69.3,139.9,90,10.36,8.94,8.94,1603576742
79,US,Kapaa,40,22.08,-159.32,69,14.99,81.0,84.99,1603576743
80,JP,Nemuro,69,43.32,145.57,66,24.34,50.7,50.7,1603576744
81,BR,Touros,40,-5.2,-35.46,83,9.17,78.8,78.8,1603576540
82,TO,Vaini,90,-21.2,-175.2,88,11.41,75.2,75.2,1603576746
83,CA,Ucluelet,20,48.93,-125.55,46,3.36,50.0,52.0,1603576723
84,RU,Mago,100,53.25,140.18,87,16.84,44.13,44.13,1603576748
85,MY,George Town,20,5.41,100.34,88,3.36,78.01,78.8,1603576750
86,PE,Hualmay,26,-11.1,-77.61,75,9.57,66.2,66.2,1603576751
87,VE,San Carlos,99,9.66,-68.58,89,1.48,77.63,77.63,1603576637
88,GL,Upernavik,100,72.79,-56.15,95,10.67,22.78,22.78,1603576753
89,CA,Thompson,90,55.74,-97.86,62,9.17,24.8,24.8,1603576754
90,RU,Zhigansk,100,66.77,123.37,97,25.41,21.02,21.02,1603576755
91,CA,Pangnirtung,95,66.15,-65.71,90,4.94,18.37,18.37,1603576757
92,US,Santa Paula,72,34.35,-119.06,72,3.0,64.99,70.0,1603576743
93,US,Nome,90,64.5,-165.41,96,11.41,35.6,36.0,1603576701
94,PW,Kloulklubed,100,7.04,134.26,70,6.44,84.0,84.0,1603576760
95,TG,Atakpamé,73,7.53,1.13,84,3.85,74.7,74.7,1603576761
96,JP,Naze,40,28.37,129.48,63,6.93,66.2,69.8,1603576762
97,AR,Mar del Plata,90,-38.0,-57.56,93,6.93,57.99,60.8,1603576725
98,US,Bethel,95,41.37,-73.41,74,10.45,55.99,57.99,1603576477
99,NO,Vardø,100,70.37,31.11,76,22.59,39.45,39.45,1603576766
100,MV,Hithadhoo,45,-0.6,73.08,74,10.76,83.3,83.3,1603576767
101,BR,Conde,75,-7.26,-34.91,83,8.05,78.8,78.8,1603576768
102,CA,Port Hawkesbury,90,45.62,-61.35,93,8.05,53.6,54.0,1603576769
103,US,Russell,40,32.35,-85.2,94,2.68,68.0,69.8,1603576714
104,SA,Faya,0,18.39,42.45,19,3.27,60.8,62.6,1603576771
105,JP,Katsuura,75,35.13,140.3,54,13.87,57.0,57.99,1603576484
106,MU,Grand Gaube,35,-20.01,57.66,88,5.99,69.01,69.01,1603576773
107,GL,Nanortalik,15,60.14,-45.24,90,10.04,32.45,32.45,1603576774
108,RU,Nadym,82,65.53,72.52,95,8.55,14.4,14.4,1603576776
109,PT,Ponta do Sol,20,32.67,-17.1,63,9.17,59.0,66.2,1603576777
110,PH,Buluang,100,13.31,123.34,89,4.94,77.63,77.63,1603576778
111,US,Saint George,1,37.1,-113.58,31,3.36,75.2,80.01,1603576779
112,MU,Souillac,75,-20.52,57.52,88,12.75,71.6,71.6,1603576780
113,BR,Castro,73,-24.79,-50.01,89,4.34,64.31,64.31,1603576692
114,JP,Shimokizukuri,75,40.81,140.39,61,16.11,48.2,55.0,1603576782
115,RU,Turukhansk,100,65.82,87.98,95,5.26,8.85,8.85,1603576783
116,MX,Cabo San Lucas,20,22.89,-109.91,58,9.17,87.8,90.0,1603576571
117,RU,Belaya Gora,100,68.53,146.42,94,5.08,15.55,15.55,1603576786
118,ES,Muros,93,42.78,-9.06,90,25.99,61.0,62.01,1603576787
119,CA,Tuktoyaktuk,75,69.45,-133.04,92,4.7,15.8,15.8,1603576788
120,RU,Vostok,100,46.49,135.88,100,4.79,27.7,27.7,1603576789
121,RU,Khatanga,100,71.97,102.5,95,14.85,6.8,6.8,1603576790
122,RU,Igrim,100,63.19,64.42,93,9.44,25.16,25.16,1603576791
123,CA,Torbay,90,47.67,-52.73,93,26.4,46.0,48.99,1603576792
124,ZA,Cape Town,20,-33.93,18.42,93,3.36,57.0,61.0,1603576498
125,AU,Geraldton,0,-28.77,114.6,87,4.7,51.8,51.8,1603576794
126,PK,Uthal,0,25.81,66.62,42,0.47,72.55,72.55,1603576795
127,LK,Hambantota,0,6.12,81.12,94,4.7,77.0,77.0,1603576797
128,RU,Vanavara,97,60.34,102.28,98,3.58,24.13,24.13,1603576798
129,RU,Ust'-Ilimsk,100,58.0,102.66,97,2.77,29.3,29.3,1603576799
130,RU,Strezhevoy,90,60.73,77.59,85,6.71,23.0,23.0,1603576800
131,NU,Alofi,100,-19.06,-169.92,94,14.99,75.2,75.2,1603576801
132,CL,Coyhaique,40,-45.58,-72.07,41,4.7,57.2,57.2,1603576803
133,CA,Hanna,94,51.63,-111.9,65,11.99,18.0,18.0,1603576804
134,NZ,Tuatapere,97,-46.13,167.68,53,14.0,73.99,73.99,1603576806
135,RU,Kondinskoye,100,59.65,67.41,98,12.46,26.19,26.19,1603576808
136,IN,Songadh,31,21.17,73.57,55,2.93,72.9,72.9,1603576810
137,PE,Sechura,24,-5.56,-80.82,60,18.16,71.44,71.44,1603576811
138,CL,Lebu,32,-37.62,-73.65,74,7.4,53.71,53.71,1603576813
139,US,Mayo,90,38.89,-76.51,88,6.93,69.01,71.01,1603576814
140,GA,Port-Gentil,40,-0.72,8.78,88,6.93,78.8,78.8,1603576816
141,BR,São João da Barra,90,-21.64,-41.05,94,9.17,73.4,73.4,1603576817
142,FO,Klaksvík,2,62.23,-6.59,81,16.11,46.4,46.4,1603576818
143,US,Hilo,90,19.73,-155.09,70,11.41,75.99,84.2,1603576706
144,SB,Auki,9,-8.77,160.7,68,2.86,84.65,84.65,1603576820
145,KE,Lamu,1,-2.27,40.9,83,6.93,78.8,78.8,1603576822
146,US,Washington,2,47.5,-120.5,73,3.38,35.01,39.99,1603576641
147,EG,Rosetta,40,31.4,30.42,83,4.7,69.8,69.8,1603576825
148,RU,Borogontsy,21,62.67,131.17,95,2.3,5.88,5.88,1603576826
149,US,Big Spring,1,32.25,-101.48,37,10.29,71.01,71.6,1603576827
150,RU,Nikolskoye,40,59.7,30.79,93,2.24,37.4,39.0,1603576829
151,RU,Severo-Kuril'sk,100,50.68,156.12,91,25.52,46.92,46.92,1603576830
152,VE,Puerto Ayacucho,74,5.66,-67.62,81,1.77,80.15,80.15,1603576832
153,GB,Newport,100,51.59,-3.0,97,1.99,46.0,51.01,1603576618
154,ID,Indramayu,100,-6.33,108.32,78,12.39,78.33,78.33,1603576834
155,SO,Bosaso,23,11.28,49.18,40,5.19,79.07,79.07,1603576836
156,RU,Tiksi,100,71.69,128.87,92,24.49,11.77,11.77,1603576837
157,NZ,Kaitangata,100,-46.28,169.85,48,10.94,70.09,70.09,1603576838
158,TL,Airai,11,-8.93,125.41,94,0.87,63.57,63.57,1603576840
159,TR,Tarsus,0,36.92,34.88,46,5.82,71.6,71.6,1603576740
160,RU,Anadyr,75,64.75,177.48,92,4.47,21.2,21.2,1603576842
161,ET,Gimbi,0,9.17,35.83,99,0.94,55.42,55.42,1603576811
162,RU,Kichmengskiy Gorodok,0,59.98,45.79,97,4.45,30.36,30.36,1603576844
163,NZ,Wanaka,100,-44.7,169.15,78,8.08,59.09,59.09,1603576846
164,ID,Banjar,40,-8.19,114.97,88,2.24,78.8,78.8,1603576847
165,NE,Gouré,89,13.98,10.27,16,10.0,84.0,84.0,1603576849
166,US,Oak Ridge,1,36.01,-84.27,82,4.43,64.0,66.99,1603576814
167,BR,Caravelas,77,-17.71,-39.25,85,8.1,75.31,75.31,1603576584
168,CN,Xichang,87,27.9,102.26,74,1.23,57.16,57.16,1603576853
169,BR,Caiapônia,94,-16.96,-51.81,91,8.9,71.17,71.17,1603576854
170,CA,Saint-Augustin,100,51.23,-58.65,86,17.58,45.93,45.93,1603576856
171,ZA,East London,4,-33.02,27.91,83,0.4,69.44,69.44,1603576857
172,CO,Magangué,100,9.24,-74.75,87,5.86,81.55,81.55,1603576859
173,VN,Vinh,96,18.67,105.67,72,5.91,69.67,69.67,1603576860
174,US,Natchez,90,31.56,-91.4,87,8.05,57.2,57.2,1603576861
175,BR,Camocim,42,-2.9,-40.84,76,18.92,81.01,81.01,1603576862
176,RU,Urengoy,100,65.97,78.37,95,8.7,14.09,14.09,1603576864
177,US,Lompoc,90,34.64,-120.46,68,10.29,64.4,66.2,1603576755
178,ML,Bafoulabé,4,13.81,-10.83,23,1.61,84.4,84.4,1603576866
179,CD,Bukama,46,-9.2,25.85,73,0.69,75.79,75.79,1603576867
180,RU,Ust-Maya,77,60.42,134.53,95,2.42,10.83,10.83,1603576869
181,CN,Shitanjing,43,39.23,106.34,57,3.47,45.05,45.05,1603576870
182,BR,Paraúna,81,-16.95,-50.45,77,8.95,73.99,73.99,1603576872
183,OM,Sur,0,22.57,59.53,50,10.76,77.16,77.16,1603576873
184,RU,Mugur-Aksy,25,50.35,90.5,83,6.67,14.99,14.99,1603576874
185,NO,Øksfjord,75,70.24,22.35,80,11.41,36.0,39.2,1603576876
186,NZ,Whitianga,3,-36.83,175.7,66,5.61,65.48,65.48,1603576877
187,GL,Narsaq,30,60.92,-46.05,68,3.36,30.2,30.2,1603576878
188,ZM,Mwinilunga,87,-11.74,24.43,48,2.15,67.39,67.39,1603576880
189,IR,Sabzawār,0,36.21,57.68,53,5.97,46.83,46.83,1603576881
190,CA,Halifax,100,44.65,-63.57,99,3.85,54.0,55.99,1603576863
191,PF,Faanui,42,-16.48,-151.75,74,7.09,79.32,79.32,1603576883
192,BR,Vitória,40,-20.32,-40.34,100,4.7,71.6,71.6,1603576603
193,IN,Pithora,24,21.27,82.52,66,1.59,69.19,69.19,1603576886
194,AR,Comodoro Rivadavia,75,-45.87,-67.5,59,14.99,60.8,60.8,1603576887
195,US,Fortuna,1,40.6,-124.16,67,14.99,57.0,61.0,1603576681
196,AU,Yulara,0,-25.24,130.99,47,11.41,59.0,59.0,1603576873
197,KZ,Zhezkazgan,89,47.8,67.71,66,14.81,34.81,34.81,1603576890
198,CO,Mapiripán,35,2.89,-72.13,76,3.89,83.28,83.28,1603576892
199,ID,Padang,100,-0.95,100.35,78,4.05,77.83,77.83,1603576893
200,NO,Trofors,78,65.53,13.41,60,11.41,39.0,39.2,1603576894
201,RU,Nyurba,82,63.28,118.33,95,5.88,21.36,21.36,1603576895
202,JP,Hasaki,20,35.73,140.83,100,1.12,44.6,44.6,1603576897
203,VE,San Cristobal,40,7.77,-72.22,58,9.17,87.8,87.8,1603576898
204,SO,Hobyo,89,5.35,48.53,79,12.44,78.66,78.66,1603576900
205,US,Excelsior Springs,90,39.34,-94.23,65,8.05,41.0,42.8,1603576901
206,US,Berwick,31,41.05,-76.23,58,5.01,50.0,53.01,1603576902
207,PT,Camacha,20,33.08,-16.33,72,3.36,62.6,62.6,1603576903
208,SL,Bonthe,91,7.53,-12.51,82,4.25,79.32,79.32,1603576905
209,ES,Los Llanos de Aridane,90,28.66,-17.92,56,8.05,62.01,73.4,1603576906
210,ID,Bengkulu,100,-3.8,102.27,84,3.83,76.33,76.33,1603576908
211,AU,Codrington,64,-38.27,141.97,69,19.44,48.78,48.78,1603576909
212,BR,Amapá,72,1.0,-52.0,52,3.53,84.94,84.94,1603576910
213,BR,Camapuã,63,-19.53,-54.04,66,2.1,80.08,80.08,1603576912
214,CA,Norman Wells,75,65.28,-126.83,92,9.17,21.2,21.2,1603576913
215,NA,Lüderitz,17,-26.65,15.16,74,16.02,61.23,61.23,1603576914
216,CA,Iqaluit,90,63.75,-68.51,86,4.54,26.6,26.6,1603576915
217,IN,Madanapalle,71,13.55,78.5,84,1.54,70.54,70.54,1603576917
218,AU,Mount Gambier,75,-37.83,140.77,75,9.17,46.4,46.4,1603576918
219,TH,Chon Daen,64,16.19,100.86,90,1.74,71.01,71.01,1603576919
220,CA,Haines Junction,100,60.75,-137.51,73,1.3,27.93,27.93,1603576921
221,RU,Suksun,100,57.14,57.39,97,11.72,38.88,38.88,1603576922
222,ES,Cervo,77,43.67,-7.41,89,7.0,59.0,59.0,1603576923
223,CO,Juradó,100,7.11,-77.76,90,7.34,76.82,76.82,1603576924
224,AU,Biloela,84,-24.42,150.5,67,8.16,75.67,75.67,1603576926
225,BR,Grajaú,100,-5.82,-46.14,71,2.66,80.46,80.46,1603576927
226,NA,Walvis Bay,0,-22.96,14.51,82,5.82,57.2,57.99,1603576928
227,PK,Keti Bandar,0,24.14,67.45,63,8.12,78.48,78.48,1603576929
228,US,Westport,40,41.14,-73.36,72,9.17,59.0,62.6,1603576864
229,GL,Ilulissat,51,69.22,-51.1,62,10.29,21.2,21.2,1603576932
230,MG,Manakara,8,-22.13,48.02,86,5.19,68.67,68.67,1603576933
231,RU,Ust'-Omchug,100,61.15,149.63,97,3.47,31.73,31.73,1603576934
232,FO,Vestmanna,5,62.16,-7.17,81,16.11,46.4,46.4,1603576935
233,ET,Kibre Mengist,53,5.88,38.98,94,2.53,56.55,56.55,1603576936
234,BR,Itarema,0,-2.92,-39.92,79,15.46,79.81,79.81,1603576938
235,RU,Dikson,13,73.51,80.55,94,5.68,22.28,22.28,1603576939
236,RU,Tokur,100,53.13,132.9,97,7.72,26.56,26.56,1603576940
237,MZ,Lichinga,31,-13.31,35.24,65,5.93,65.43,65.43,1603576941
238,RU,Dudinka,75,69.41,86.18,92,11.18,14.0,14.0,1603576942
239,JP,Ryōtsu-minato,40,38.08,138.43,62,20.8,57.2,57.2,1603576938
240,AZ,Julfa,0,38.96,45.63,53,9.17,50.0,50.0,1603576944
241,CM,Mfou,97,3.72,11.64,99,4.63,68.88,68.88,1603576945
242,PT,Lagoa,87,39.05,-27.98,78,18.45,65.88,65.88,1603576946
243,KG,Kyzyl-Oktyabr,95,42.77,75.73,70,0.87,38.98,38.98,1603576948
244,CN,Xining,92,36.62,101.77,62,2.64,45.07,45.07,1603576840
245,US,Havelock,1,34.88,-76.9,57,6.93,73.99,77.0,1603576757
246,PT,Aljezur,24,37.32,-8.8,79,4.43,59.45,59.45,1603576951
247,RU,Belyy Yar,0,53.6,91.39,53,13.42,26.6,26.6,1603576952
248,MX,Pochutla,90,15.74,-96.47,70,4.72,86.0,86.0,1603576954
249,PR,Hatillo,40,18.49,-66.83,70,3.36,77.0,87.01,1603576955
250,ID,Muncar,83,-8.43,114.33,88,0.31,76.33,76.33,1603576956
251,CA,Clyde River,90,70.47,-68.59,73,4.7,19.4,19.4,1603576957
252,VU,Isangel,75,-19.55,169.27,69,11.43,80.6,80.6,1603576958
253,CN,Altay,1,47.87,88.12,85,3.56,23.29,23.29,1603576959
254,NZ,Kaeo,21,-35.1,173.78,69,5.99,71.01,71.01,1603576961
255,ID,Ambon City,20,-3.7,128.18,94,6.93,77.0,77.0,1603576962
256,RU,Toropets,97,56.5,31.64,96,5.41,43.05,43.05,1603576963
257,US,Alpena,90,45.06,-83.43,74,3.36,37.0,39.0,1603576965
258,RU,Zabaykal'sk,100,49.63,117.32,91,2.26,31.01,31.01,1603576966
259,BR,Natal,40,-5.79,-35.21,83,9.17,78.8,78.8,1603576967
260,CN,Yima,1,34.74,111.88,99,0.25,55.99,55.99,1603576968
261,SN,Saint-Louis,100,16.33,-15.0,13,13.42,95.13,95.13,1603576928
262,GL,Sisimiut,7,66.94,-53.67,90,13.33,23.22,23.22,1603576971
263,AU,Alice Springs,0,-23.7,133.88,42,13.87,62.6,62.6,1603576893
264,AU,Port Lincoln,90,-34.73,135.87,66,16.28,52.86,52.86,1603576706
265,AF,Dawlatabad,0,36.41,64.91,68,3.09,40.68,40.68,1603576974
266,BR,Soure,3,-0.72,-48.52,79,11.97,80.78,80.78,1603576976
267,AU,Esperance,9,-33.87,121.9,100,11.41,50.0,50.0,1603576977
268,AW,Oranjestad,20,12.52,-70.03,74,21.92,86.0,86.0,1603576978
269,RU,Agirish,100,61.92,63.02,97,9.01,23.36,23.36,1603576979
270,NZ,Brightwater,58,-41.38,173.12,77,1.99,64.0,64.0,1603576980
271,CD,Kaniama,100,-7.57,24.18,92,1.19,67.17,67.17,1603576981
272,ZA,Port Elizabeth,14,-33.92,25.57,86,3.22,62.01,62.01,1603576982
273,IS,Husavik,90,66.04,-17.34,75,19.46,41.0,41.0,1603576984
274,RE,Saint-Joseph,0,-21.37,55.62,60,5.82,68.0,68.0,1603576985
275,PH,Malayal,75,7.21,121.94,100,4.7,77.0,77.0,1603576986
276,US,Rock Hill,20,34.92,-81.03,57,5.82,75.0,80.01,1603576820
277,KZ,Emba,44,48.83,58.14,66,14.2,45.97,45.97,1603576988
278,CN,Lingdong,31,46.57,131.15,91,11.59,32.58,32.58,1603576989
279,EC,Puerto Baquerizo Moreno,75,-0.9,-89.6,88,18.34,71.6,71.6,1603576812
280,CA,Port-Cartier,40,50.03,-66.87,81,14.99,42.01,42.8,1603576992
281,TR,Bitlis Province,0,38.5,42.25,53,2.91,45.79,45.79,1603576993
282,CL,Coquimbo,90,-29.95,-71.34,71,8.05,57.2,57.2,1603576994
283,KR,Seoul,1,37.57,126.98,93,1.19,35.6,39.2,1603576954
284,RU,Batagay-Alyta,100,67.8,130.41,86,4.97,9.45,9.45,1603576996
285,LR,Harper,83,4.38,-7.72,86,5.73,77.97,77.97,1603576997
286,CN,Hohhot,20,40.81,111.65,49,2.24,46.4,46.4,1603576998
287,IS,Olafsvik,100,64.89,-23.71,77,43.66,41.36,41.36,1603577000
288,RU,Evensk,71,61.95,159.23,90,9.1,31.8,31.8,1603577001
289,RU,Teya,100,60.38,92.63,96,7.81,26.49,26.49,1603577002
290,VE,Barinitas,98,8.76,-70.41,87,1.59,75.2,75.2,1603577003
291,NO,Gravdal,0,68.12,13.5,72,9.19,40.57,40.57,1603577004
292,US,Avera,1,33.19,-82.53,69,3.36,75.99,78.8,1603577005
293,CN,Jinchang,100,38.5,102.17,48,2.73,46.74,46.74,1603577006
294,YE,Aden,0,12.78,45.04,62,12.39,83.25,83.25,1603576713
295,RU,Dzhebariki-Khaya,59,62.22,135.8,93,2.46,10.45,10.45,1603577009
296,PH,Dingle,94,11.0,122.67,90,2.08,74.53,74.53,1603577010
297,RU,Leningradskiy,30,69.38,178.42,93,7.29,22.68,22.68,1603577011
298,RU,Andra,100,62.51,65.89,93,12.12,23.83,23.83,1603577012
299,CN,Hongjiang,30,27.11,110.0,78,1.59,54.61,54.61,1603577013
300,IN,Bharatpur,0,27.22,77.48,22,3.09,71.76,71.76,1603577015
301,PE,Pisco,0,-13.7,-76.22,77,18.34,64.99,66.2,1603577016
302,RU,Mirny,75,62.54,113.96,85,4.47,23.0,23.0,1603577017
303,VE,El Tigre,67,8.89,-64.25,77,7.34,79.61,79.61,1603577018
304,PG,Namatanai,23,-3.67,152.43,73,2.62,82.98,82.98,1603577019
305,BR,Mangaratiba,100,-22.96,-44.04,93,3.38,71.01,71.01,1603577020
306,MX,San Quintín,95,30.48,-115.95,67,13.47,69.71,69.71,1603577022
307,IS,Vestmannaeyjar,82,63.44,-20.27,62,26.46,46.31,46.31,1603577023
308,FR,Antibes,0,43.56,7.13,87,5.82,53.6,57.2,1603576748
309,CA,Moose Factory,90,51.26,-80.61,47,10.29,33.8,33.8,1603577025
310,CN,Kaitong,10,44.81,123.15,77,6.67,37.08,37.08,1603577026
311,JP,Toyooka,40,35.53,134.83,76,9.17,48.2,48.2,1603577027
312,GH,Esim,84,4.87,-2.24,87,8.66,78.03,78.03,1603577028
313,RU,Tulun,100,54.56,100.58,93,18.19,32.61,32.61,1603577029
314,PE,Huancavelica,94,-12.77,-74.98,56,3.4,50.0,50.0,1603577031
315,RU,Serebryanyy Bor,76,56.8,124.8,98,2.19,22.01,22.01,1603577032
316,KZ,Abay,0,49.63,72.85,58,15.66,28.4,28.4,1603577033
317,NC,Vao,69,-22.67,167.48,80,14.45,73.09,73.09,1603577034
318,NG,Lafiagi,95,8.87,5.42,61,3.65,78.93,78.93,1603577035
319,US,Peru,1,40.75,-86.07,57,8.05,48.99,50.0,1603576807
320,US,Broome,90,42.25,-75.83,70,11.41,39.99,46.0,1603577037
321,CA,Pincher Creek,75,49.48,-113.95,61,8.05,10.0,14.0,1603576974
322,RU,Nizhniy Odes,100,63.64,54.86,98,6.49,26.38,26.38,1603577039
323,US,Yarmouth,90,41.71,-70.23,82,9.17,62.01,64.99,1603577041
324,BO,Santa Cruz de la Sierra,21,-17.8,-63.17,41,11.41,93.2,95.0,1603576807
325,SY,Manbij,75,36.53,37.95,38,3.24,60.8,60.8,1603577043
326,CN,Yining,100,29.04,114.56,62,1.36,56.82,56.82,1603577044
327,ID,Sijunjung,100,-0.69,100.95,89,1.1,73.33,73.33,1603577045
328,BB,Bathsheba,40,13.22,-59.52,70,20.8,84.2,84.2,1603577046
329,US,Benton,90,36.33,-94.33,70,0.65,46.4,46.4,1603577047
330,CA,Chapais,90,49.78,-74.85,79,8.05,28.4,28.4,1603577048
331,IN,Pāsighāt,100,28.07,95.33,88,1.48,71.44,71.44,1603577050
332,AO,Lubango,25,-14.92,13.49,62,1.54,65.88,65.88,1603577051
333,LT,Šalčininkai,75,54.3,25.38,93,10.29,48.99,50.0,1603577052
334,CI,Tabou,42,4.42,-7.35,86,5.82,78.04,78.04,1603577053
335,BR,Cidreira,63,-30.18,-50.21,89,13.09,68.54,68.54,1603577054
336,BR,Cristalina,91,-16.77,-47.61,97,4.92,63.82,63.82,1603577055
337,EG,Marsá Maţrūḩ,40,31.35,27.25,68,6.93,71.6,71.6,1603577056
338,ZA,Kruisfontein,0,-34.0,24.73,86,2.84,62.01,62.01,1603577058
339,US,Portland,90,45.52,-122.68,57,20.8,46.99,52.0,1603576763
340,KY,Bodden Town,75,19.28,-81.25,78,12.75,80.01,82.4,1603577060
341,JP,Itoman,40,26.12,127.67,64,10.29,62.6,71.6,1603577061
342,SO,Oodweyne,34,9.41,45.06,20,9.15,74.07,74.07,1603577062
343,RU,Tishchenskoye,0,45.46,41.67,57,6.71,51.01,51.8,1603577063
344,SE,Vänersborg,100,58.38,12.32,93,9.17,46.4,48.99,1603577064
345,RU,Khasan,11,42.43,130.64,49,24.38,48.97,48.97,1603577065
346,RE,Bras-Panon,0,-21.0,55.68,60,17.22,57.99,71.6,1603577067
347,PG,Kavieng,92,-2.57,150.8,66,3.44,84.27,84.27,1603577068
348,ID,Srandakan,99,-7.94,110.25,88,8.1,77.36,77.36,1603577069
349,MX,Puerto Escondido,75,15.85,-97.07,70,9.17,86.0,86.0,1603577070
350,GH,Takoradze,58,4.88,-1.76,89,9.24,77.49,77.49,1603577071
351,UA,Sudak,81,44.85,34.97,74,4.21,64.26,64.26,1603576809
352,HK,Hong Kong,98,22.29,114.16,69,3.0,61.0,75.0,1603577073
353,AF,Nuristan,100,35.3,70.83,100,3.04,22.82,22.82,1603577074
354,GL,Qasigiannguit,97,68.82,-51.19,62,10.29,21.2,21.2,1603577075
355,IN,Leh,0,34.17,77.58,75,3.04,31.26,31.26,1603577077
356,CD,Kindu,100,-2.95,25.95,96,1.88,71.35,71.35,1603577078
357,AU,Mackay,40,-21.15,149.2,83,10.29,77.0,78.01,1603577079
358,RU,Boksitogorsk,100,59.47,33.85,87,4.81,35.38,35.38,1603577080
359,IN,Sonepur,64,20.83,83.92,68,1.95,70.09,70.09,1603577081
360,TM,Abadan,0,38.05,58.21,36,4.7,53.6,53.6,1603577082
361,FI,Keminmaa,0,65.86,24.82,92,1.12,26.6,26.6,1603577083
362,JP,Nichinan,20,31.6,131.37,71,8.05,51.8,51.8,1603577084
363,BF,Kongoussi,2,13.33,-1.53,14,7.96,84.13,84.13,1603577085
364,MZ,Inhambane,93,-23.86,35.38,90,7.52,71.17,71.17,1603577087
365,CL,Linares,99,-35.85,-71.6,74,13.42,58.55,58.55,1603576878
366,JP,Nihommatsu,40,37.58,140.43,87,9.17,46.4,53.01,1603577089
367,TH,Kamphaeng Phet,94,16.25,99.5,93,1.21,70.9,70.9,1603577090
368,CA,Saint-Ambroise,90,48.55,-71.33,69,8.05,37.4,39.99,1603577091
369,IN,Kavaratti,41,10.57,72.64,73,7.96,81.43,81.43,1603577092
370,CO,Timbiquí,80,2.77,-77.67,90,5.19,77.88,77.88,1603577093
371,PT,Vila Franca do Campo,75,37.72,-25.43,82,17.22,68.0,68.0,1603577094
372,NO,Visnes,100,59.36,5.22,93,19.46,51.01,54.0,1603577095
373,MV,Ugoofaaru,100,5.67,73.0,73,10.94,82.92,82.92,1603577097
374,BR,Vila Velha,40,-20.33,-40.29,100,4.7,71.6,71.6,1603576893
375,BY,Berëzovka,53,53.72,25.5,92,9.84,48.94,48.94,1603577099
376,RO,Runcu,100,45.12,23.13,71,1.03,57.43,57.43,1603577100
377,ID,Tual,67,-5.67,132.75,72,4.25,82.76,82.76,1603577101
378,NP,Jumla,0,29.27,82.18,52,5.48,42.87,42.87,1603577103
379,CD,Mbandaka,91,0.05,18.26,96,2.24,72.03,72.03,1603577104
380,CV,Pombas,40,17.15,-25.02,78,26.4,80.6,80.6,1603577105
381,AR,Viedma,25,-40.81,-63.0,50,5.01,81.0,81.0,1603577181
382,PT,Ribeira Grande,72,38.52,-28.7,83,10.38,66.63,66.63,1603577182
383,US,Lake Charles,90,30.21,-93.2,77,6.93,62.6,64.4,1603577184
384,CA,Port Hardy,20,50.7,-127.42,39,17.22,46.4,46.4,1603577185
385,MX,Sonoita,100,31.85,-112.83,22,11.36,87.01,87.01,1603577186
386,AU,Bowen,90,-20.02,148.23,88,1.12,75.2,75.2,1603577187
387,CD,Kisangani,100,0.52,25.2,95,1.86,72.41,72.41,1603577188
388,RU,Cherskiy,4,68.75,161.3,93,4.94,17.02,17.02,1603577189
389,FR,Arrondissement de Bourges,0,47.25,2.42,76,11.41,53.01,55.4,1603577190
390,TH,Lat Yao,77,15.75,99.79,88,2.53,71.69,71.69,1603577191
391,RU,Yashkul',44,46.17,45.34,84,5.7,55.85,55.85,1603577193
392,CA,Fort Nelson,5,58.81,-122.7,42,6.93,26.6,26.6,1603577194
393,PT,Lata,99,40.16,-8.33,78,8.99,61.0,62.01,1603577195
394,CA,Hay River,75,60.82,-115.8,68,8.05,30.2,30.2,1603577196
395,MG,Toamasina,40,-18.17,49.38,94,2.24,68.0,68.0,1603577197
396,IS,Grindavik,75,63.84,-22.43,75,25.28,42.8,42.8,1603577198
397,SV,Intipucá,40,13.2,-88.05,79,6.93,87.8,89.6,1603577199
398,GY,Mabaruma,22,8.2,-59.78,85,4.03,79.3,79.3,1603577200
399,RU,Udachny,40,66.42,112.4,92,4.47,10.4,10.4,1603577201
400,SA,Riyadh,0,24.69,46.72,34,3.49,64.4,64.4,1603577203
401,CF,Ouadda,100,8.08,22.4,88,1.95,69.76,69.76,1603577204
402,TR,Erzin,100,36.96,36.2,29,11.01,75.99,75.99,1603577205
403,CA,Shelburne,75,44.08,-80.2,80,10.29,36.0,39.99,1603577206
404,CA,Havre-St-Pierre,90,50.23,-63.6,93,16.11,42.8,42.8,1603577207
405,NO,Skibotn,40,69.39,20.27,81,17.22,37.4,37.4,1603577208
406,US,San Patricio,75,28.02,-97.52,46,6.93,73.0,73.99,1603577209
407,AU,Alyangula,75,-13.85,136.42,78,3.36,82.4,82.4,1603577210
408,IN,Karwar,60,14.8,74.13,88,9.35,76.01,76.01,1603577212
409,US,Palmer,40,42.16,-72.33,55,16.11,55.99,62.6,1603577201
410,US,Juneau,75,58.3,-134.42,34,3.36,37.4,39.0,1603577165
411,BF,Sindou,1,10.67,-5.17,40,0.18,77.04,77.04,1603577215
412,MG,Ikongo,94,-21.88,47.43,86,2.46,66.76,66.76,1603577216
413,AU,Carnarvon,75,-24.87,113.63,100,17.22,69.8,69.8,1603577217
414,RU,Ol'ga,63,43.74,135.29,75,9.78,37.85,37.85,1603577219
415,RO,Lunca Cernii de Jos,100,45.63,22.62,94,1.45,51.49,51.49,1603577220
416,IT,Forio,0,40.73,13.86,75,7.0,59.0,66.0,1603577221
417,CA,Aklavik,75,68.22,-135.01,92,5.82,17.6,17.6,1603577222
418,MG,Ikalamavony,27,-21.15,46.58,68,9.35,65.53,65.53,1603577223
419,MX,El Sauzal de Rodríguez,100,31.9,-116.68,80,1.99,70.0,70.0,1603577224
420,US,Big Rapids,75,43.7,-85.48,65,7.45,41.0,42.01,1603577226
421,PL,Wejherowo,0,54.61,18.24,87,5.82,50.0,50.0,1603577227
422,UY,Treinta y Tres,34,-33.23,-54.38,92,9.48,69.58,69.58,1603577228
423,ID,Meulaboh,100,4.14,96.13,95,6.69,73.63,73.63,1603577229
424,RO,Asău,100,46.43,26.4,98,2.71,52.0,52.0,1603577230
425,ID,Waingapu,38,-9.66,120.26,77,3.51,79.9,79.9,1603577231
426,RE,Saint-Pierre,0,-21.34,55.48,60,5.82,57.99,68.0,1603577232
427,RU,Divnomorskoye,0,44.5,38.14,63,3.04,61.21,61.21,1603577233
428,PA,Pedasí,100,7.53,-80.03,85,20.42,79.38,79.38,1603577235
429,RU,Kyra,94,49.58,111.98,93,2.01,30.88,30.88,1603577236
430,US,Eufaula,100,31.89,-85.15,98,4.36,69.01,70.0,1603577237
431,PG,Vanimo,87,-2.67,141.3,82,2.37,80.31,80.31,1603577238
432,ZA,Danielskuil,52,-28.19,23.54,33,7.92,72.01,72.01,1603577239
433,AR,Morón,26,-34.65,-58.62,81,4.0,66.99,73.0,1603577240
434,MG,Ampanihy,98,-24.7,44.75,68,6.02,71.46,71.46,1603577241
435,US,Saint Anthony,40,45.02,-93.22,50,9.17,30.0,32.0,1603577242
436,AU,Hervey Bay,75,-25.3,152.85,73,17.22,77.0,78.01,1603577121
437,US,Aransas Pass,90,27.91,-97.15,44,7.83,69.8,75.2,1603577245
438,BO,Riberalta,40,-10.98,-66.1,50,4.7,95.0,95.0,1603577246
439,AU,Karratha,0,-20.74,116.85,88,9.44,64.26,64.26,1603577089
440,MN,Khovd,0,48.01,91.64,74,6.91,30.38,30.38,1603577248
441,PH,Marawi,100,8.0,124.29,92,5.01,73.99,73.99,1603577249
442,SO,Kismayo,93,-0.36,42.55,84,11.72,79.45,79.45,1603577250
443,AU,Lakes Entrance,20,-37.88,147.98,84,1.99,50.0,50.0,1603577251
444,MV,Thinadhoo,56,0.53,72.93,76,11.59,83.17,83.17,1603577252
445,RU,Solnechnyy,100,50.72,136.63,91,16.49,37.4,37.4,1603577254
446,US,El Reno,1,35.53,-97.95,43,6.93,55.4,57.0,1603577255
447,CN,Korla,17,41.76,86.15,64,1.99,45.0,45.0,1603577256
448,RU,Energetik,73,51.74,58.79,93,10.18,47.77,47.77,1603577257
449,GL,Paamiut,13,61.99,-49.67,85,6.31,30.07,30.07,1603577258
450,YE,Bajil,2,15.06,43.29,58,3.74,85.77,85.77,1603577259
451,GB,Northam,80,51.03,-4.22,87,4.0,48.0,51.01,1603577260
452,US,Kenai,90,60.55,-151.26,72,14.99,42.8,44.6,1603577261
453,MZ,Quelimane,0,-17.88,36.89,93,3.18,70.03,70.03,1603577263
454,ID,Palu,100,-0.89,119.87,77,2.37,75.97,75.97,1603577264
455,RU,Kargopol',60,61.51,38.95,95,6.38,32.86,32.86,1603577265
456,JP,Ishigaki,20,24.34,124.16,69,18.34,73.4,73.4,1603577266
457,GF,Cayenne,20,4.93,-52.33,74,5.82,84.2,84.2,1603577092
458,IR,Bojnourd,0,37.47,57.33,44,2.24,41.0,41.0,1603577015
459,BR,Cabedelo,75,-6.98,-34.83,83,8.05,78.8,78.8,1603577270
460,FR,Saint-François,0,46.42,3.91,100,2.24,46.4,46.99,1603577271
461,ID,Sungai Penuh,100,-2.08,101.38,93,1.23,65.66,65.66,1603577272
462,AU,Maningrida,93,-12.07,134.27,69,5.91,81.46,81.46,1603577273
463,US,Bar Harbor,90,44.39,-68.2,93,5.82,54.0,57.0,1603577274
464,IR,Tabas,0,33.6,56.92,24,2.24,59.0,59.0,1603577275
465,CA,Smithers,20,54.78,-127.17,42,4.7,28.4,28.4,1603577000
466,IN,Tura,72,25.52,90.22,98,3.04,71.17,71.17,1603577277
467,TH,Trat,97,12.5,102.5,67,4.54,73.99,73.99,1603577278
468,NO,Berlevåg,100,70.86,29.09,76,19.01,38.61,38.61,1603577279
469,CN,Beipiao,96,41.79,120.78,58,0.92,42.31,42.31,1603577281
470,UA,Lypnyazhka,100,48.45,31.08,77,6.71,55.0,55.0,1603577282
471,CN,Yumen,100,40.28,97.2,67,7.87,38.95,38.95,1603577283
472,BR,Pimenta Bueno,87,-11.67,-61.19,59,6.58,84.76,84.76,1603577284
473,GB,Kirkwall,11,58.98,-2.96,75,11.41,46.4,46.4,1603577285
474,PE,Huarmey,81,-10.07,-78.15,78,8.03,66.16,66.16,1603577286
475,SO,Mogadishu,100,2.04,45.34,84,6.73,79.68,79.68,1603577287
476,RU,Lebedinyy,76,58.52,125.52,97,4.36,21.87,21.87,1603577288
477,PT,Aguçadoura,75,41.43,-8.78,100,20.8,57.99,60.8,1603577289
478,NO,Andenes,75,69.31,16.12,80,20.8,41.0,41.0,1603577291
479,SE,Karlstad,100,59.38,13.5,100,4.7,46.4,46.4,1603577292
480,AU,Flinders,96,-34.58,150.86,76,7.0,55.99,57.99,1603577293
481,AU,Moranbah,97,-22.0,148.05,55,12.08,79.39,79.39,1603577294
482,RU,Chernyshevsk,29,52.52,117.02,94,2.15,29.8,29.8,1603577295
483,PH,Latung,100,5.5,120.88,77,4.74,81.84,81.84,1603577296
484,PA,Finca Blanco,40,8.38,-82.87,83,13.87,64.0,80.6,1603577297
485,JP,Shibetsu,90,43.66,145.13,75,16.49,45.9,45.9,1603577298
486,CU,Nuevitas,90,21.55,-77.26,83,6.93,80.6,80.6,1603577300
487,GB,Stornoway,18,58.21,-6.39,81,36.91,46.4,48.0,1603577301
488,IN,Ziro,100,27.63,93.83,100,0.18,54.3,54.3,1603577302
489,IN,Kurud,18,20.83,81.72,67,1.41,69.73,69.73,1603577303
490,RU,Seymchan,97,62.88,152.43,95,3.2,27.95,27.95,1603577304
491,BR,Mairi,94,-11.71,-40.15,65,10.94,76.78,76.78,1603577305
492,BW,Shakawe,59,-18.37,21.85,29,4.83,74.89,74.89,1603577306
493,BR,Carutapera,11,-1.2,-46.02,81,6.69,78.28,78.28,1603577308
494,VE,Maturin,60,9.75,-63.18,84,6.44,77.99,77.99,1603577309
495,PF,Mahina,75,-17.51,-149.49,69,6.93,82.0,82.4,1603577310
496,NO,Rognan,0,67.1,15.39,95,7.14,28.0,32.0,1603577311
497,SV,Acajutla,83,13.59,-89.83,94,1.01,78.01,78.01,1603577312
498,US,Traverse City,90,44.76,-85.62,60,9.17,37.99,41.0,1603577313
499,SE,Luleå,0,65.58,22.15,92,3.36,23.0,23.0,1603577314
500,UY,Rocha,19,-34.48,-54.33,95,6.29,62.6,62.6,1603577316
501,TR,Kumluca,2,36.37,30.29,30,8.59,78.62,78.62,1603577317
502,AO,Huambo,81,-12.78,15.74,54,3.02,65.46,65.46,1603577318
503,IT,Fiumicino,0,41.77,12.23,100,3.36,55.4,59.0,1603577320
504,AU,Colac,42,-38.33,143.58,69,10.0,41.0,46.99,1603577321
505,ES,Canary Islands,40,28.0,-15.5,64,20.8,69.01,71.6,1603577322
506,CA,La Ronge,90,55.1,-105.28,53,11.41,24.8,24.8,1603577323
507,JP,Shimoda,31,34.67,138.95,70,1.01,55.0,55.0,1603577324
508,MM,Thaton,57,16.92,97.37,92,3.06,74.66,74.66,1603577325
509,RU,Okhotsk,100,59.38,143.3,82,16.33,37.87,37.87,1603577327
510,RU,Shumskiy,100,54.83,99.13,92,11.97,29.93,29.93,1603577328
511,RU,Chumikan,100,54.72,135.31,86,10.87,34.57,34.57,1603577329
512,RU,Kstovo,40,56.15,44.2,75,4.47,41.0,41.0,1603577330
513,IN,Narasaraopet,79,16.25,80.07,84,2.89,74.21,74.21,1603577331
514,US,Kahului,20,20.89,-156.47,58,8.05,81.0,87.8,1603577332
515,FI,Hamina,0,60.57,27.2,76,3.36,33.8,34.0,1603577334
516,NZ,Waitati,100,-45.75,170.57,50,15.32,68.02,68.02,1603577335
517,US,Laguna,1,38.42,-121.42,43,6.93,69.8,73.99,1603577336
518,PG,Popondetta,56,-8.75,148.25,66,0.27,84.29,84.29,1603577337
519,SJ,Longyearbyen,75,78.22,15.64,85,3.36,19.4,19.4,1603577061
520,CV,Praia,100,14.92,-23.51,83,16.11,78.8,78.8,1603577339
521,PL,Nidzica,21,53.36,20.43,93,8.05,50.0,50.0,1603577340
522,YE,Marzuq,0,14.4,46.47,27,1.43,63.46,63.46,1603577341
523,CA,Peace River,20,56.25,-117.29,49,19.46,24.8,24.8,1603577342
524,US,Iberia,75,29.95,-91.75,73,13.87,66.2,71.6,1603577343
525,ES,Bereda,97,43.27,-7.54,100,18.01,55.99,59.0,1603577345
526,ES,Mahon,20,39.89,4.27,63,11.41,64.4,64.4,1603577346
527,ID,Sorong,100,-0.88,131.25,84,5.23,79.09,79.09,1603577347
528,PE,Chilca,40,-12.52,-76.74,68,11.41,66.0,68.0,1603577348
529,GB,Margate,93,51.38,1.39,83,11.01,55.99,59.0,1603577349
530,IN,Nīlēshwar,80,12.25,75.1,85,5.75,74.95,74.95,1603577345
531,CO,San Andrés,75,12.58,-81.7,83,4.7,84.2,84.2,1603577351
532,BD,Chhāgalnāiya,98,23.03,91.51,97,6.4,73.89,73.89,1603577352
533,GM,Nioro,22,13.35,-15.75,60,3.47,81.66,81.66,1603577354
534,PH,Isabela,75,6.71,121.97,100,4.7,77.0,77.0,1603577355
535,AU,Cowra,100,-33.83,148.68,93,1.99,51.01,51.01,1603577356
536,GB,Hastings,100,50.86,0.57,82,42.5,52.0,62.6,1603577357
537,BR,Arinos,100,-15.92,-46.11,94,1.63,69.24,69.24,1603577358
538,RU,Kuragino,96,53.9,92.67,84,15.79,28.89,28.89,1603577359
539,RU,Baykit,100,61.67,96.37,96,2.66,25.81,25.81,1603577108
540,RU,Muravlenko,69,63.79,74.52,97,8.72,14.58,14.58,1603577129
541,CA,Riviere-au-Renard,90,49.0,-64.4,93,9.17,46.4,46.4,1603577362
542,PH,Davila,90,18.47,120.58,100,2.24,77.0,77.0,1603577364
543,MX,Rosarito,90,32.33,-117.03,68,12.75,68.0,71.01,1603577365
544,AU,Katherine,40,-14.47,132.27,69,5.82,80.6,80.6,1603577366
545,NA,Katima Mulilo,59,-17.5,24.27,27,2.64,74.95,74.95,1603577367
546,RO,Subcetate,100,46.85,25.45,86,2.08,48.0,48.0,1603577368
547,AU,Gold Coast,90,-28.0,153.43,78,10.29,73.4,77.0,1603577276
548,NE,Agadez,0,19.75,10.25,20,9.84,72.28,72.28,1603577370
549,GF,Iracoubo,70,5.48,-53.2,76,12.82,82.49,82.49,1603577372
550,AU,Dubbo,90,-32.25,148.62,93,8.05,53.6,53.6,1603577373
551,CD,Kabinda,92,-6.13,24.48,89,0.83,69.51,69.51,1603577374
552,MX,Durango,1,24.83,-104.83,22,3.67,78.8,78.8,1603577227
553,AZ,Xudat,0,41.63,48.68,50,4.97,62.55,62.55,1603577376
554,AU,Kununurra,65,-15.77,128.73,94,3.36,80.6,80.6,1603577377
555,CG,Djambala,92,-2.54,14.75,97,2.86,68.7,68.7,1603577378
556,IN,Pallapatti,91,11.66,78.13,81,1.1,73.33,73.33,1603577379
557,RU,Krasnyy Chikoy,94,50.36,108.75,94,2.71,31.28,31.28,1603577380
558,BR,Piracanjuba,87,-17.3,-49.02,86,5.99,71.83,71.83,1603577382
559,ID,Merauke,74,-8.47,140.33,83,5.7,79.5,79.5,1603577383
560,GB,Peterhead,20,57.51,-1.8,87,12.75,45.0,48.2,1603577384
561,IR,Bushehr,0,28.97,50.84,53,3.44,76.26,76.26,1603577385
562,ID,Pangkalanbuun,91,-2.68,111.62,95,1.74,74.46,74.46,1603577386
563,EG,Alexandria,40,31.22,29.96,83,4.7,69.8,69.8,1603577281
564,AR,Río Gallegos,75,-51.62,-69.22,81,8.05,44.6,44.6,1603577388
565,RU,Zima,100,53.92,102.04,94,17.67,35.15,35.15,1603577389
